{"type":"FeatureCollection", "features": [
{"type":"Feature","geometry":{"type":"Point","coordinates":[89.28210282024453,26.69569577337898]},"properties":{"OBJECTID":1,"OID_":0,"Name":"SBI ATM","FolderPath":"ATM.kml/ATM","SymbolID":0,"AltMode":-1,"Base":0,"Snippet":"","PopupInfo":"","HasLabel":-1,"LabelID":0}},
{"type":"Feature","geometry":{"type":"Point","coordinates":[89.28103360421647,26.693352899794174]},"properties":{"OBJECTID":2,"OID_":0,"Name":"CENTRAL BANK ATM","FolderPath":"ATM.kml/ATM","SymbolID":0,"AltMode":-1,"Base":0,"Snippet":"","PopupInfo":"","HasLabel":-1,"LabelID":0}},
{"type":"Feature","geometry":{"type":"Point","coordinates":[89.34022235839964,26.685607786945113]},"properties":{"OBJECTID":3,"OID_":0,"Name":"SBI ATM","FolderPath":"ATM.kml/ATM","SymbolID":0,"AltMode":-1,"Base":0,"Snippet":"","PopupInfo":"","HasLabel":-1,"LabelID":0}},
{"type":"Feature","geometry":{"type":"Point","coordinates":[89.34257294997626,26.692958792287623]},"properties":{"OBJECTID":4,"OID_":0,"Name":"AXIS BANK ATM","FolderPath":"ATM.kml/ATM","SymbolID":0,"AltMode":-1,"Base":0,"Snippet":"","PopupInfo":"","HasLabel":-1,"LabelID":0}},
{"type":"Feature","geometry":{"type":"Point","coordinates":[89.35205529310578,26.724884372918847]},"properties":{"OBJECTID":5,"OID_":0,"Name":"INDUSLND BANK ATM","FolderPath":"ATM.kml/ATM","SymbolID":0,"AltMode":-1,"Base":0,"Snippet":"","PopupInfo":"","HasLabel":-1,"LabelID":0}},
{"type":"Feature","geometry":{"type":"Point","coordinates":[89.52311700024623,26.480530400151753]},"properties":{"OBJECTID":6,"OID_":0,"Name":"Axis Bank ATM -","FolderPath":"ATM.kml/ATM","SymbolID":0,"AltMode":-1,"Base":0,"Snippet":"","PopupInfo":"","HasLabel":-1,"LabelID":0}},
{"type":"Feature","geometry":{"type":"Point","coordinates":[89.52442250027134,26.47846719956646]},"properties":{"OBJECTID":7,"OID_":0,"Name":"IndusInd Bank","FolderPath":"ATM.kml/ATM","SymbolID":0,"AltMode":-1,"Base":0,"Snippet":"","PopupInfo":"","HasLabel":-1,"LabelID":0}},
{"type":"Feature","geometry":{"type":"Point","coordinates":[89.52398419952455,26.480673099943793]},"properties":{"OBJECTID":8,"OID_":0,"Name":"SBI ATM","FolderPath":"ATM.kml/ATM","SymbolID":0,"AltMode":-1,"Base":0,"Snippet":"","PopupInfo":"","HasLabel":-1,"LabelID":0}},
{"type":"Feature","geometry":{"type":"Point","coordinates":[89.52405169985491,26.480631601420935]},"properties":{"OBJECTID":9,"OID_":0,"Name":"Bandhan Bank ATM","FolderPath":"ATM.kml/ATM","SymbolID":0,"AltMode":-1,"Base":0,"Snippet":"","PopupInfo":"","HasLabel":-1,"LabelID":0}},
{"type":"Feature","geometry":{"type":"Point","coordinates":[89.52361290042496,26.477972698599732]},"properties":{"OBJECTID":10,"OID_":0,"Name":"ICICI BANK ATM","FolderPath":"ATM.kml/ATM","SymbolID":0,"AltMode":-1,"Base":0,"Snippet":"","PopupInfo":"","HasLabel":-1,"LabelID":0}},
{"type":"Feature","geometry":{"type":"Point","coordinates":[89.52482009981883,26.47984459963418]},"properties":{"OBJECTID":11,"OID_":0,"Name":"Bank of India ATM","FolderPath":"ATM.kml/ATM","SymbolID":0,"AltMode":-1,"Base":0,"Snippet":"","PopupInfo":"","HasLabel":-1,"LabelID":0}},
{"type":"Feature","geometry":{"type":"Point","coordinates":[89.52800270021281,26.500683599856625]},"properties":{"OBJECTID":12,"OID_":0,"Name":"Bank of Baroda A.T.M","FolderPath":"ATM.kml/ATM","SymbolID":0,"AltMode":-1,"Base":0,"Snippet":"","PopupInfo":"","HasLabel":-1,"LabelID":0}}
]}