{"type":"FeatureCollection", "features": [
{"type":"Feature","geometry":{"type":"Point","coordinates":[89.27533522707904,26.669128102388775]},"properties":{"OBJECTID":1,"OID_":0,"Name":"JALDAPARA FOREST TOURIST LODGE","FolderPath":"HOTEL.kml/HOTEL","SymbolID":0,"AltMode":-1,"Base":0,"Snippet":"","PopupInfo":"","HasLabel":-1,"LabelID":0}},
{"type":"Feature","geometry":{"type":"Point","coordinates":[89.2781982984806,26.6887065138343]},"properties":{"OBJECTID":2,"OID_":0,"Name":"JALDAPARA WILD HUT","FolderPath":"HOTEL.kml/HOTEL","SymbolID":0,"AltMode":-1,"Base":0,"Snippet":"","PopupInfo":"","HasLabel":-1,"LabelID":0}},
{"type":"Feature","geometry":{"type":"Point","coordinates":[89.28565836804111,26.69556759372045]},"properties":{"OBJECTID":3,"OID_":0,"Name":"JALDAPARA TOURIST LODGE","FolderPath":"HOTEL.kml/HOTEL","SymbolID":0,"AltMode":-1,"Base":0,"Snippet":"","PopupInfo":"","HasLabel":-1,"LabelID":0}},
{"type":"Feature","geometry":{"type":"Point","coordinates":[89.2824402961585,26.6965090651996]},"properties":{"OBJECTID":4,"OID_":0,"Name":"JALDAPARA SATYAM LODGE","FolderPath":"HOTEL.kml/HOTEL","SymbolID":0,"AltMode":-1,"Base":0,"Snippet":"","PopupInfo":"","HasLabel":-1,"LabelID":0}},
{"type":"Feature","geometry":{"type":"Point","coordinates":[89.28204522630463,26.695321169783096]},"properties":{"OBJECTID":5,"OID_":0,"Name":"MAHAMAYA LODGE","FolderPath":"HOTEL.kml/HOTEL","SymbolID":0,"AltMode":-1,"Base":0,"Snippet":"","PopupInfo":"","HasLabel":-1,"LabelID":0}},
{"type":"Feature","geometry":{"type":"Point","coordinates":[89.27936551036268,26.690634658867857]},"properties":{"OBJECTID":6,"OID_":0,"Name":"TITHI LODGE","FolderPath":"HOTEL.kml/HOTEL","SymbolID":0,"AltMode":-1,"Base":0,"Snippet":"","PopupInfo":"","HasLabel":-1,"LabelID":0}},
{"type":"Feature","geometry":{"type":"Point","coordinates":[89.28541114435946,26.63848680454833]},"properties":{"OBJECTID":7,"OID_":0,"Name":"HOLLONG TOURIST LODGE","FolderPath":"HOTEL.kml/HOTEL","SymbolID":0,"AltMode":-1,"Base":0,"Snippet":"","PopupInfo":"","HasLabel":-1,"LabelID":0}},
{"type":"Feature","geometry":{"type":"Point","coordinates":[89.27867998004635,26.691488641398944]},"properties":{"OBJECTID":8,"OID_":0,"Name":"HOTEL RAJ","FolderPath":"HOTEL.kml/HOTEL","SymbolID":0,"AltMode":-1,"Base":0,"Snippet":"","PopupInfo":"","HasLabel":-1,"LabelID":0}},
{"type":"Feature","geometry":{"type":"Point","coordinates":[89.27765531685151,26.689826174887123]},"properties":{"OBJECTID":9,"OID_":0,"Name":"ANNAPURNA HOTEL","FolderPath":"HOTEL.kml/HOTEL","SymbolID":0,"AltMode":-1,"Base":0,"Snippet":"","PopupInfo":"","HasLabel":-1,"LabelID":0}},
{"type":"Feature","geometry":{"type":"Point","coordinates":[89.28190622050082,26.693733100997065]},"properties":{"OBJECTID":10,"OID_":0,"Name":"RESTAURANT HOTEL LODGING","FolderPath":"HOTEL.kml/HOTEL","SymbolID":0,"AltMode":-1,"Base":0,"Snippet":"","PopupInfo":"","HasLabel":-1,"LabelID":0}}
]}